[
    {
      "name": "DnaLounge",
      "commonName": "DNA Lounge",
      "website": "https://www.dnalounge.com/",
      "region": "San Francisco",
      "mapLink": "",
      "latlng": "37.7712709589196, -122.41278334105019",
      "desc": "A variety of DJ'd theme nights, live acts & drag shows keeps mixed crowds partying until 3 AM.",
      "img": "https://cdn.dnalounge.com/backstage/log/2015/07/glow.jpg"
    },
    {
      "name": "ElboRoom",
      "commonName": "Elbo Room",
      "website": "https://www.elboroomjacklondon.com/",
      "region": "San Francisco",
      "mapLink": "",
      "latlng": "37.79735929031427, -122.27594265750385",
      "desc": "Bilevel bar featuring a dance floor & wide-ranging music from DJs & bands, plus daily happy hour.",
      "img": "https://9968c6ef49dc043599a5-e151928c3d69a5a4a2d07a8bf3efa90a.ssl.cf2.rackcdn.com/1179295-1.jpg"
    },
    {
      "name": "ElisMileHighClub",
      "commonName": "Eli's Mile High Club",
      "website": "http://elismilehigh.com/",
      "region": "East Bay",
      "mapLink": "",
      "latlng": "37.825963943582, -122.26963881517561",
      "desc": "Former blues institution, now a bustling bar with Cajun-inspired bar bites, live bands & beer.",
      "img": "https://www.timesheraldonline.com/wp-content/uploads/2020/05/SJM-SATVIRUS-0523-18.jpg?w=620"
    },
    {
      "name": "GoldenBull",
      "commonName": "Golden Bull",
      "website": "https://goldenbullbar.com/",
      "region": "East Bay",
      "mapLink": "",
      "latlng": "37.80438048778646, -122.27026978634001",
      "desc": "Lively hangout offering a full bar with craft beer & cocktails, plus pool, live bands & DJs.",
      "img": "https://i0.wp.com/newspack-berkeleyside-cityside.s3.amazonaws.com/wp-content/uploads/2021/06/golden_bull-720x662.jpg?resize=720%2C662&ssl=1"
    },
    {
      "name": "GreyArea",
      "commonName": "Grey Area",
      "website": "https://grayarea.org/",
      "region": "San Francisco",
      "mapLink": "",
      "latlng": "37.754502454358125, -122.41853488819491",
      "desc": "Sizable, renovated historic theater featuring creative events relating to art and technology.",
      "img": "https://imgproxy.ra.co/_/quality:66/aHR0cHM6Ly9zdGF0aWMucmEuY28vaW1hZ2VzL3Byb21vdGVyL3VzLWdyYXlhcmVhbnljLmpwZz9kYXRlVXBkYXRlZD0xNjUyODI1MDIzMTA3"
    },
    {
      "name": "Knockout",
      "commonName": "Knockout",
      "website": "https://theknockoutsf.com/",
      "region": "San Francisco",
      "mapLink": "",
      "latlng": "37.74535330528293, -122.41996965935881",
      "desc": "DJ dance parties, punk bands & bingo nights are among the offerings at this no-frills bar.",
      "img": "https://s.hdnux.com/photos/01/32/32/11/23700038/5/ratio3x2_1200.jpg"
    },
    {
      "name": "TheeParkside",
      "commonName": "Parkside",
      "website": "https://www.theeparkside.com/",
      "region": "San Francisco",
      "mapLink": "",
      "latlng": "37.76536616388736, -122.39991100168584",
      "desc": "Watering hole with a backyard & a small stage hosting bands spanning indie, punk, metal & country.",
      "img": "https://fastly.4sqi.net/img/general/600x600/c9-O2g4ugr_Xvv9L3kNvEDIiOGJFWwQgxOjmbPLlhXg.jpg"
    },
    {
      "name": "BottomOfTheHill",
      "commonName": "Bottom Of The Hill",
      "website": "http://www.bottomofthehill.com/",
      "region": "San Francisco",
      "mapLink": "",
      "latlng": "37.7652322231627, -122.39644963068031",
      "desc": "From indie rock to hip-hop, this popular club offers a range of live music, plus outdoor seating.",
      "img": "https://upload.wikimedia.org/wikipedia/commons/2/2a/Bottom_of_the_hill.jpg"
    },
    {
      "name": "Cornerstone",
      "commonName": "Cornerstone Brewery",
      "website": "https://cornerstoneberkeley.com/music-venue/",
      "region": "East Bay",
      "mapLink": "",
      "latlng": "37.86652335529277, -122.26729071533632",
      "desc": "Expansive, multi-faceted beer hall & American kitchen with live music, ping pong & outdoor seating.",
      "img": "https://cornerstoneberkeley.com/wp-content/uploads/2020/12/cornerstone-stack-logo.png"
    },
    {
      "name": "ElRio",
      "commonName": "El Rio",
      "website": "https://www.elriosf.com/",
      "region": "San Francisco",
      "mapLink": "",
      "latlng": "37.746912749315676, -122.41929098465583",
      "desc": "A Mission standby since 1978, this local bar with an expansive patio draws a diverse crowd.",
      "img": "https://img.hoodline.com/uploads/story/image/50265/el_rio_your_dive.jpg"
    },
    {
      "name": "FreightAndSalvage",
      "commonName": "Freight And Salvage",
      "website": "https://thefreight.org/",
      "region": "East Bay",
      "mapLink": "",
      "latlng": "37.87107158135359, -122.2696704325259",
      "desc": "The Freight and Salvage is a nonprofit musical performance venue in Berkeley, California that primarily hosts Americana music and world music acts.",
      "img": "https://fastly.4sqi.net/img/general/600x600/506027_gw6nDzNhNg2huOSRgRacIFQAnvVD2TLV4REOrOKplTc.jpg"
    },
    {
      "name": "Zeitgeist",
      "commonName": "Zeitgeist",
      "website": "https://www.zeitgeistsf.com/",
      "region": "San Francisco",
      "mapLink": "",
      "latlng": "37.770150192891506, -122.42217084602194",
      "desc": "Craft beers & a spacious patio with picnic benches draw a lively crowd to this popular Mission spot.",
      "img": "https://encrypted-tbn0.gstatic.com/images?q=tbn:ANd9GcRk4gCkyH83w7B1puVGlRnXTDCjF6HH3C9Z6fe18pA_gM9VkZFza4kLEGdohAX87OYhVhY&usqp=CAU"
    },
    {
      "name": "TheChapel",
      "commonName": "Chapel",
      "website": "https://thechapelsf.com/",
      "region": "San Francisco",
      "mapLink": "",
      "latlng": "37.76068146496075, -122.42128717342376",
      "desc": "Converted ex-chapel featuring a 40-ft. arched ceiling, bar & a wide variety of live-music acts.",
      "img": "https://pbs.twimg.com/profile_images/2738836741/ca676972b8fc8322c77a5c45ce75b27e_400x400.jpeg"
    },
    {
      "name": "Independent",
      "commonName": "Independent",
      "website": "http://theindependentsf.com/",
      "region": "San Francisco",
      "mapLink": "",
      "latlng": "37.775904930095464, -122.43747145397509",
      "desc": "Intimate, no-frills music venue with a full bar that features indie & emerging acts.",
      "img": "https://i1.sndcdn.com/avatars-000076234615-hx4d5y-t500x500.jpg"
    },
    {
      "name": "Starline",
      "commonName": "Starline Social Club",
      "website": "https://starlinesocialclub.com/",
      "region": "East Bay",
      "mapLink": "",
      "latlng": "37.81276145220253, -122.27209591590031",
      "desc": "Vintage-chic ground-floor bar & lounge plus an upstairs ballroom in a historic former saloon space.",
      "img": "https://starlinesocialclub.com/wp-content/uploads/2021/11/Starline-Social-Club-Outside-Image.jpg"
    },
    {
      "name": "Warfield",
      "commonName": "Warfield",
      "website": "https://www.thewarfieldtheatre.com/",
      "region": "San Francisco",
      "mapLink": "",
      "latlng": "37.78287720607724, -122.41029925397505",
      "desc": "Intimate venue began as a vaudeville theater in 1922 & now hosts a variety of national music acts.",
      "img": "https://www.thewarfieldtheatre.com/assets/img/warfield-hero-03-ebddbcd84d.jpg"
    },
    {
      "name": "GreatAmericanMusicHall",
      "commonName": "Great American Music Hall",
      "website": "https://gamh.com/",
      "region": "San Francisco",
      "mapLink": "",
      "latlng": "37.78570726311687, -122.41862030793457",
      "desc": "Once host to the Grateful Dead, this ornately decked concert venue now books modern mainstream acts.",
      "img": "https://pbs.twimg.com/profile_images/1458164350271713284/3qYmAR1s_400x400.jpg"
    },
    {
      "name": "Fillmore",
      "commonName": "Fillmore",
      "website": "https://www.livenation.com/venue/KovZpZAE6eeA/the-fillmore-events",
      "region": "San Francisco",
      "mapLink": "",
      "latlng": "37.784516137619555, -122.4332164382042",
      "desc": "Famed '60s counterculture music venue draws crowds for indie & major label acts (capacity: 1,199).",
      "img": "https://assets.livenationcdn.com/uploads/fillmore-header.png"
    },
    {
      "name": "GreekTheater",
      "commonName": "Greek Theater",
      "website": "https://thegreekberkeley.com/",
      "region": "East Bay",
      "mapLink": "",
      "latlng": "37.87425341626093, -122.25429983863341",
      "desc": "Located at UC Berkeley, this popular outdoor spot draws well-known bands & other events.",
      "img": "https://dynamic-media-cdn.tripadvisor.com/media/photo-o/13/b4/67/b9/cool.jpg?w=1200&h=1200&s=1"
    },
    {
      "name": "IvyRoom",
      "commonName": "Ivy Room",
      "website": "https://www.ivyroom.com/",
      "region": "East Bay",
      "mapLink": "",
      "latlng": "37.89105175708205, -122.29917516931671",
      "desc": "Hip neighborhood bar featuring craft cocktails, quirky vintage decor & regular live music.",
      "img": "https://images.squarespace-cdn.com/content/v1/61158978c9078a1340cf6e25/1629241205516-K9N2WVPSBQO6GFNAQPBO/ivyroom2.jpg"
    },
    {
      "name": "UCBerkeleyTheater",
      "commonName": "UC Berkeley Theater",
      "website": "https://theuctheatre.org/",
      "region": "East Bay",
      "mapLink": "",
      "latlng": "37.87239206650805, -122.26956443572898",
      "desc": "The UC Theatre is a music venue on University Avenue near Shattuck Avenue in Downtown Berkeley, Berkeley, California, United States. From 1976 until 2001, it was as a movie theater known for a revival house presentation of films.",
      "img": "https://i.ytimg.com/vi/tIfM4vf-Veo/maxresdefault.jpg"
    },
    {
      "name": "RickshawStop",
      "commonName": "Rickshaw Stop",
      "website": "https://rickshawstop.com/",
      "region": "San Francisco",
      "mapLink": "",
      "latlng": "37.77667998998165, -122.42038505396386",
      "desc": "Indie bands & DJs rock crowds in a small, funky space that also offers food & lounge areas.",
      "img": "https://pbs.twimg.com/profile_images/1399203702985007109/j31PXiRc_400x400.jpg"
    },
    {
      "name": "MakeOutRoom",
      "commonName": "Make Out Room",
      "website": "http://www.makeoutroom.com/",
      "region": "San Francisco",
      "mapLink": "",
      "latlng": "37.75561626731759, -122.41779494756615",
      "desc": "DJs, live bands & more in a dimly lit, retro setting complete with disco ball above the dance floor.",
      "img": "https://images.squarespace-cdn.com/content/v1/59e75c55a803bbc973dfc016/1569943309185-4VXIYB8S1KBVLGU61HRP/5B0A7065.jpg?format=1500w"
    },
    {
      "name": "Yoshis",
      "commonName": "Yoshis",
      "website": "https://yoshis.com/",
      "region": "East Bay",
      "mapLink": "",
      "latlng": "37.7969484364991, -122.27906056138154",
      "desc": "Combination sushi restaurant & nightclub offering Japanese fare & live music in a relaxed setting.",
      "img": "https://upload.wikimedia.org/wikipedia/en/e/ef/Yoshi-s-jazz-club.png"
    },
    {
      "name": "Winters",
      "commonName": "Winter's Tavern",
      "website": "https://winterstavern.com/",
      "region": "Other",
      "mapLink": "",
      "latlng": "37.63742865000287, -122.4903133693172",
      "desc": "Down 'n' dirty bar featuring live rock, folk & bluegrass bands in a rustic, wood-paneled space.",
      "img": "https://winterstavern.com/wp-content/uploads/2018/02/WintersSurf-200x300.jpg"
    },
    {
      "name": "Regency",
      "commonName": "Regency Ballroom",
      "website": "https://www.theregencyballroom.com/",
      "region": "San Francisco",
      "mapLink": "",
      "latlng": "37.78837882837116, -122.42124163863345",
      "desc": "Built in 1909, this ornate & intimate theater showcases contemporary bands & live DJ events.",
      "img": "https://storage.googleapis.com/cms-org.media.aegpresents.com/venue-rentals/venues/regency-ballroom/medium/medium_01.jpg"
  },
    {
      "name": "HotelUtah",
      "commonName": "Hotel Utah",
      "website": "https://hotelutah.com/",
      "region": "San Francisco",
      "mapLink": "",
      "latlng": "37.7803159134943, -122.39774497726685",
      "desc": "Serving serve fine drinks, tasty food, and hot music for your enterta.",
      "img": "https://pbs.twimg.com/profile_images/685567742879989760/IEcRaPND_400x400.jpg"
    },
    {
      "name": "Amados",
      "commonName": "Amados",
      "website": "http://www.amadossf.com/",
      "region": "San Francisco",
      "mapLink": "",
      "latlng": "37.7574511174347, -122.4213731",
      "desc": "Established in 2015. Amado's is an underground music venue + bar + restaurant in the heart of San Francisco's Mission District. Live music, private rentals, and pop-ups.",
      "img": "https://encrypted-tbn0.gstatic.com/images?q=tbn:ANd9GcThdaCp1vt1aJ3VTUtq5DPzS9lx4JLOOL6LnQ&usqp=CAU"
    },
    {
      "name": "Bimbos",
      "commonName": "Bimbos",
      "website": "https://bimbos365club.com/",
      "region": "San Francisco",
      "mapLink": "",
      "latlng": "37.80450644920101, -122.41537657726685",
      "desc": "World-famous acts play this swanky, 1950s-era music club loaded with red velvet & chandeliers.",
      "img": "https://www.sfheritage.org/wp-content/uploads/2020/04/Bimbos_exterior.jpg"
    },
    {
      "name": "BrickAndMortar",
      "commonName": "Brick and Mortar",
      "website": "https://www.brickandmortarmusic.com/",
      "region": "San Francisco",
      "mapLink": "",
      "latlng": "37.76987211703599, -122.42041027300945",
      "desc": "Talent ranges from bluegrass to hip-hop at this modest-sized music venue near the freeway.",
      "img": "https://ww2.kqed.org/app/uploads/sites/2/2019/03/Brick-and-Mortar-Music-Hall-2-Feb-18-800x450.jpg"
    },
    {
      "name": "CafeDuNord",
      "commonName": "Cafe Du Nord",
      "website": "https://cafedunord.com/",
      "region": "San Francisco",
      "mapLink": "",
      "latlng": "37.76723474909922, -122.43041839999998",
      "desc": "Show nights bring New American eats, drinks & live music to this historic former speakeasy space.",
      "img": "https://upload.wikimedia.org/wikipedia/commons/0/07/Main_entrance_to_Cafe_Du_Nord_cropped.jpg"
    },
    {
      "name": "Crybaby",
      "commonName": "Crybaby",
      "website": "https://crybaby.live/",
      "region": "East Bay",
      "mapLink": "",
      "latlng": "37.80935823009132, -122.26943678465838",
      "desc": "Crybaby is a live music venue, dance club & events space in downtown Oakland that pushes creativity through the lens of sound and visuals.",
      "img": "https://pbs.twimg.com/profile_images/1468500834228994050/K5qFvF7f_400x400.jpg"
    },
    {
      "name": "Eagle",
      "commonName": "Eagle",
      "website": "https://sf-eagle.com/",
      "region": "San Francisco",
      "mapLink": "",
      "latlng": "37.771076377872284, -122.41413888690153",
      "desc": "Revival of a legendary LBGT leather bar with periodic drag shows, theme nights & big heated patio.",
      "img": "https://encrypted-tbn0.gstatic.com/images?q=tbn:ANd9GcS_mLmK0assvRY55dw4YDGEbJrLM8Wv6SHU4g&usqp=CAU"
    },
    {
      "name": "Midway",
      "commonName": "Midway SF",
      "website": "https://themidwaysf.com/",
      "region": "San Francisco",
      "mapLink": "",
      "latlng": "37.749718528282344, -122.38586606136657",
      "desc": "The Midway is a one-of-a-kind space, dedicated to bringing art, entertainment, and education under one synergistic & collaborative roof.",
      "img": "https://themidwaysf.com/wp-content/uploads/2022/08/4Y4A1319-1-1.jpg"
    },
    {
      "name": "MilkBar",
      "commonName": "Milk Bar",
      "website": "https://www.eventbrite.com/o/the-milk-bar-presents-6806338175",
      "region": "San Francisco",
      "mapLink": "",
      "latlng": "37.770107525377185, -122.45268443068328",
      "desc": "Club with local bands & DJs spinning anything from dubstep to dancehall, plus comedians some nights.",
      "img": "https://img.evbuc.com/https%3A%2F%2Fcdn.evbuc.com%2Fimages%2F508879929%2F78654724783%2F1%2Foriginal.20230505-225547?h=230&w=460&auto=format%2Ccompress&q=75&sharp=10&rect=0%2C152%2C1242%2C621&s=39c1c2c43fbea1958ab34d2b46660fcc"
    },
    {
      "name": "SfJazz",
      "commonName": "SF Jazz",
      "website": "https://www.sfjazz.org/",
      "region": "San Francisco",
      "mapLink": "",
      "latlng": "37.77714742893529, -122.42107310055866",
      "desc": "This nightspot presents a line-up of internationally renowned jazz performers live on stage.",
      "img": "https://ybgfestival.org/wp-content/uploads/2014/03/sfjazz-logo-21-300x300-300x300.jpg"
    },
    {
      "name": "AugustHall",
      "commonName": "August Hall",
      "website": "https://www.augusthallsf.com/",
      "region": "San Francisco",
      "mapLink": "",
      "latlng": "37.78826379086476, -122.4095993232918",
      "desc": "A HISTORIC VENUE REBORN IN DOWNTOWN SAN FRANCISCO Live music and entertainment with special events, three full bars, and food by Fifth Arrow.",
      "img": "https://independentvenueweek.com/us/wp-content/uploads/sites/2/2022/06/Apple010-AUGHALL-011120-ShowReady-scaled-1.jpg"
    },
    {
      "name": "Masonic",
      "commonName": "Masonic",
      "website": "https://www.livenation.com/venue/KovZpZAJ6nlA/the-masonic-events",
      "region": "San Francisco",
      "mapLink": "",
      "latlng": "37.79180844613184, -122.41270335025152",
      "desc": "Mid-century modern space built in 1958 that hosts notable music acts in an auditorium with balcony.",
      "img": "https://assets.livenationcdn.com/uploads/masonic_1024x576.jpg"
    },
    {
      "name": "Paramount",
      "commonName": "Paramount Theater",
      "website": "https://www.paramountoakland.org/",
      "region": "East Bay",
      "mapLink": "",
      "latlng": "37.81034969822523, -122.26805023863342",
      "desc": "Art Deco theater opened in 1931 hosting ballet & symphony performances, plus classic movies.",
      "img": "https://upload.wikimedia.org/wikipedia/commons/f/f9/Paramount_%2836369%29.jpg"
    },
    {
      "name": "FoxTheater",
      "commonName": "Fox Theater",
      "website": "https://thefoxoakland.com/",
      "region": "East Bay",
      "mapLink": "",
      "latlng": "37.80868250063513, -122.2702571269811",
      "desc": "Live music venue in a historic building housing an art school, bar, restaurant & courtyard.",
      "img": "https://preview.redd.it/fox-theater-oakland-acrylic-on-canvas-v0-96ekgppy1jsa1.jpg?auto=webp&s=cd593718a087dd9262208b705b6c93176b010073"
    },
    {
      "name": "GreatNorthern",
      "commonName": "Great Northern",
      "website": "https://www.thegreatnorthernsf.com/",
      "region": "San Francisco",
      "mapLink": "",
      "latlng": "37.76824966403541, -122.40624810795016",
      "desc": "DJs, live music & bottle service featured in an energetic, industrial setting with art-deco accents.",
      "img": "https://static.ra.co/images/clubs/greatnorthern1.jpg?dateUpdated=1481248739597"
    },
    {
      "name": "NewParish",
      "commonName": "New Parish",
      "website": "https://www.ticketweb.com/venue/the-new-parish-oakland-ca/428995",
      "region": "East Bay",
      "mapLink": "",
      "latlng": "37.80845199278953, -122.27004137934561",
      "desc": "Live reggae, roots & world music are featured at this intimate venue with an outdoor patio.",
      "img": "https://oaklandnorth.net/wp-content/uploads/2010/06/newparish.jpg"
    },
    {
      "name": "StorkClub",
      "commonName": "Thee Stork Club",
      "website": "https://theestorkclub.com/",
      "region": "East Bay",
      "mapLink": "",
      "latlng": "37.813853771369274, -122.26832278465767",
      "desc": "Chill live music venue also offering comedy & burlesque shows, plus a pool table & arcade games.",
      "img": "https://www.mercurynews.com/wp-content/uploads/2020/05/SJM-L-CLOSED-0526-02.jpg?w=1024"
    },
    {
      "name": "TheList",
      "commonName": "The List",
      "website": "http://www.foopee.com/punk/the-list/",
      "region": "Other",
      "mapLink": "",
      "latlng": "",
      "desc": "Another listing of shows. We fetch events from here that aren't supported by the other scrapers.",
      "img": "https://pbs.twimg.com/media/D7TjIXEU0AA2rGu?format=jpg&name=large"
    }
]
